{"type":"FeatureCollection","features":[{"type":"Feature","properties":{"ID":1,"NAME":"Appalachian Ski Mountain","WEBSITE":"https://www.appskimtn.com","PASS":620,"ADULT":77},"geometry":{"type":"Point","coordinates":[-81.6625238,36.17454873]}},{"type":"Feature","properties":{"ID":2,"NAME":"Sugar Mountain Ski Resort","WEBSITE":"https://www.skisugar.com","PASS":1224,"ADULT":94},"geometry":{"type":"Point","coordinates":[-81.85880934,36.13036341]}},{"type":"Feature","properties":{"ID":3,"NAME":"Beech Mountain Ski Resort","WEBSITE":"https://www.beechmountainresort.com","PASS":615,"ADULT":87},"geometry":{"type":"Point","coordinates":[-81.87800542,36.19458566]}},{"type":"Feature","properties":{"ID":4,"NAME":"Hatley Pointe Ski Resort","WEBSITE":"https://www.hatleypointe.com","PASS":850,"ADULT":83},"geometry":{"type":"Point","coordinates":[-82.50916219,35.95514533]}},{"type":"Feature","properties":{"ID":5,"NAME":"Cataloochee Ski Area","WEBSITE":"https://www.cataloochee.com","PASS":830,"ADULT":86},"geometry":{"type":"Point","coordinates":[-83.09006197,35.562298]}}]}